[
  {
    "Nombre": "ASERRADERO ORCELLET",
    "Identificador": "A1",
    "latitud": -32.22696433409397,
    "longitud": -58.14909864867021,
    "Capacidad productiva": 1838,
    "Oferta Aserrín": 950,
    "Oferta Chip": 2211,
    "Oferta Viruta": 258,
    "tipo": "aserradero",
    "size": 33
  },
  {
    "Nombre": "ASERRADERO SAN JOSE SRL",
    "Identificador": "A2",
    "latitud": -32.17698998889938,
    "longitud": -58.2334871801827,
    "Capacidad productiva": 1794,
    "Oferta Aserrín": 927,
    "Oferta Chip": 2158,
    "Oferta Viruta": 252,
    "tipo": "aserradero",
    "size": 32
  },
  {
    "Nombre": "ASERRADERO FOLLONIER",
    "Identificador": "A3",
    "latitud": -32.216705427246914,
    "longitud": -58.21915825573066,
    "Capacidad productiva": 1865,
    "Oferta Aserrín": 964,
    "Oferta Chip": 2243,
    "Oferta Viruta": 261,
    "tipo": "aserradero",
    "size": 34
  },
  {
    "Nombre": "ASERRADERO LOS CIPRESES",
    "Identificador": "A4",
    "latitud": -31.374284208575368,
    "longitud": -58.0834308978701,
    "Capacidad productiva": 365,
    "Oferta Aserrín": 0,
    "Oferta Chip": 729,
    "Oferta Viruta": 0,
    "tipo": "aserradero",
    "size": 24
  },
  {
    "Nombre": "LOS PINOS",
    "Identificador": "A5",
    "latitud": -30.740113194845485,
    "longitud": -57.96984224047468,
    "Capacidad productiva": 60,
    "Oferta Aserrín": 39,
    "Oferta Chip": 81,
    "Oferta Viruta": 0,
    "tipo": "aserradero",
    "size": 16
  },
  {
    "Nombre": "GIOVENALE CHRISTIAN",
    "Identificador": "A6",
    "latitud": -31.367345546406234,
    "longitud": -58.02951371799592,
    "Capacidad productiva": 373,
    "Oferta Aserrín": 746,
    "Oferta Chip": 0,
    "Oferta Viruta": 0,
    "tipo": "aserradero",
    "size": 24
  },
  {
    "Nombre": "MARINGA MADERAS",
    "Identificador": "A7",
    "latitud": -30.939403719401906,
    "longitud": -57.870915446138994,
    "Capacidad productiva": 363,
    "Oferta Aserrín": 188,
    "Oferta Chip": 437,
    "Oferta Viruta": 51,
    "tipo": "aserradero",
    "size": 24
  },
  {
    "Nombre": "ACOM CONCORDIA SOC.ANONIMA",
    "Identificador": "A8",
    "latitud": -31.374573416961965,
    "longitud": -58.08465907952594,
    "Capacidad productiva": 58,
    "Oferta Aserrín": 38,
    "Oferta Chip": 78,
    "Oferta Viruta": 0,
    "tipo": "aserradero",
    "size": 16
  },
  {
    "Nombre": "DISTRIMADER SRL",
    "Identificador": "A9",
    "latitud": -31.789115109729753,
    "longitud": -58.31356970159871,
    "Capacidad productiva": 349,
    "Oferta Aserrín": 180,
    "Oferta Chip": 420,
    "Oferta Viruta": 49,
    "tipo": "aserradero",
    "size": 23
  },
  {
    "Nombre": "ASERRADERO SAN RAMON",
    "Identificador": "A10",
    "latitud": -31.007173220048227,
    "longitud": -57.90003406238971,
    "Capacidad productiva": 1816,
    "Oferta Aserrín": 938,
    "Oferta Chip": 2184,
    "Oferta Viruta": 255,
    "tipo": "aserradero",
    "size": 33
  },
  {
    "Nombre": "MADERCOL",
    "Identificador": "A11",
    "latitud": -31.01121286306625,
    "longitud": -57.95441486473102,
    "Capacidad productiva": 57,
    "Oferta Aserrín": 30,
    "Oferta Chip": 69,
    "Oferta Viruta": 8,
    "tipo": "aserradero",
    "size": 16
  },
  {
    "Nombre": "SAN SEBASTIAN",
    "Identificador": "A12",
    "latitud": -31.01048590776489,
    "longitud": -57.90107961856614,
    "Capacidad productiva": 366,
    "Oferta Aserrín": 733,
    "Oferta Chip": 0,
    "Oferta Viruta": 0,
    "tipo": "aserradero",
    "size": 24
  },
  {
    "Nombre": "ASERRADERO MALVASIO",
    "Identificador": "A13",
    "latitud": -31.470802006754102,
    "longitud": -58.15596838954122,
    "Capacidad productiva": 1955,
    "Oferta Aserrín": 1010,
    "Oferta Chip": 2351,
    "Oferta Viruta": 274,
    "tipo": "aserradero",
    "size": 35
  },
  {
    "Nombre": "MADERAS EL TALA S.R.L.",
    "Identificador": "A14",
    "latitud": -31.386848232322954,
    "longitud": -58.09875530141546,
    "Capacidad productiva": 372,
    "Oferta Aserrín": 192,
    "Oferta Chip": 448,
    "Oferta Viruta": 52,
    "tipo": "aserradero",
    "size": 24
  },
  {
    "Nombre": "ASERRADERO HAMBIS",
    "Identificador": "A15",
    "latitud": -31.674917711433498,
    "longitud": -58.2325209539556,
    "Capacidad productiva": 351,
    "Oferta Aserrín": 181,
    "Oferta Chip": 422,
    "Oferta Viruta": 49,
    "tipo": "aserradero",
    "size": 23
  },
  {
    "Nombre": "ASERRADERO UBAJAY",
    "Identificador": "A16",
    "latitud": -31.839796651998327,
    "longitud": -58.336752954918325,
    "Capacidad productiva": 59,
    "Oferta Aserrín": 39,
    "Oferta Chip": 80,
    "Oferta Viruta": 0,
    "tipo": "aserradero",
    "size": 16
  },
  {
    "Nombre": "ASERRADERO STELLA",
    "Identificador": "A17",
    "latitud": -31.78588459512616,
    "longitud": -58.3106216294179,
    "Capacidad productiva": 1839,
    "Oferta Aserrín": 951,
    "Oferta Chip": 2212,
    "Oferta Viruta": 258,
    "tipo": "aserradero",
    "size": 33
  },
  {
    "Nombre": "ASERRADERO BENAY",
    "Identificador": "A18",
    "latitud": -31.787523555600433,
    "longitud": -58.316636614975025,
    "Capacidad productiva": 354,
    "Oferta Aserrín": 183,
    "Oferta Chip": 426,
    "Oferta Viruta": 50,
    "tipo": "aserradero",
    "size": 23
  },
  {
    "Nombre": "BELPA S. A.",
    "Identificador": "A19",
    "latitud": -31.005531177696238,
    "longitud": -57.900452359242216,
    "Capacidad productiva": 379,
    "Oferta Aserrín": 196,
    "Oferta Chip": 456,
    "Oferta Viruta": 53,
    "tipo": "aserradero",
    "size": 24
  },
  {
    "Nombre": "LOS MADEROS",
    "Identificador": "A20",
    "latitud": -31.004978060489755,
    "longitud": -57.90143032393203,
    "Capacidad productiva": 60,
    "Oferta Aserrín": 39,
    "Oferta Chip": 80,
    "Oferta Viruta": 0,
    "tipo": "aserradero",
    "size": 16
  },
  {
    "Nombre": "LAS TABLAS",
    "Identificador": "A21",
    "latitud": -30.758776579157,
    "longitud": -57.973206764606324,
    "Capacidad productiva": 1873,
    "Oferta Aserrín": 968,
    "Oferta Chip": 2253,
    "Oferta Viruta": 263,
    "tipo": "aserradero",
    "size": 34
  },
  {
    "Nombre": "C Y E MADERAS",
    "Identificador": "A22",
    "latitud": -30.763829041991283,
    "longitud": -57.992896211406595,
    "Capacidad productiva": 58,
    "Oferta Aserrín": 38,
    "Oferta Chip": 78,
    "Oferta Viruta": 0,
    "tipo": "aserradero",
    "size": 16
  },
  {
    "Nombre": "ASERRADERO SAN CAYETANO",
    "Identificador": "A23",
    "latitud": -31.431744473724184,
    "longitud": -58.12476991883693,
    "Capacidad productiva": 1812,
    "Oferta Aserrín": 937,
    "Oferta Chip": 2180,
    "Oferta Viruta": 254,
    "tipo": "aserradero",
    "size": 33
  },
  {
    "Nombre": "VICTOR RAMON ZEROLENI S.R.L.",
    "Identificador": "A24",
    "latitud": -31.013051161983867,
    "longitud": -57.90189033563924,
    "Capacidad productiva": 1902,
    "Oferta Aserrín": 983,
    "Oferta Chip": 2287,
    "Oferta Viruta": 267,
    "tipo": "aserradero",
    "size": 34
  },
  {
    "Nombre": "ASERRADERO LITORAL",
    "Identificador": "A25",
    "latitud": -31.391044216932762,
    "longitud": -58.01726696162737,
    "Capacidad productiva": 1794,
    "Oferta Aserrín": 927,
    "Oferta Chip": 2157,
    "Oferta Viruta": 252,
    "tipo": "aserradero",
    "size": 32
  },
  {
    "Nombre": "AMBAR MADERAS",
    "Identificador": "A26",
    "latitud": -31.009619564859705,
    "longitud": -57.894499623642545,
    "Capacidad productiva": 4803,
    "Oferta Aserrín": 2482,
    "Oferta Chip": 5777,
    "Oferta Viruta": 674,
    "tipo": "aserradero",
    "size": 52
  },
  {
    "Nombre": "TROZAN MADERAS SRL",
    "Identificador": "A27",
    "latitud": -31.009833484683323,
    "longitud": -57.90235895727562,
    "Capacidad productiva": 57,
    "Oferta Aserrín": 30,
    "Oferta Chip": 69,
    "Oferta Viruta": 8,
    "tipo": "aserradero",
    "size": 16
  },
  {
    "Nombre": "YUQUEMÍ MADERAS S.R.L.",
    "Identificador": "A28",
    "latitud": -31.40948636624948,
    "longitud": -58.10222604398408,
    "Capacidad productiva": 359,
    "Oferta Aserrín": 186,
    "Oferta Chip": 432,
    "Oferta Viruta": 50,
    "tipo": "aserradero",
    "size": 23
  },
  {
    "Nombre": "CAJONERA SIVIERO HNOS",
    "Identificador": "A29",
    "latitud": -30.799760046854566,
    "longitud": -57.91709726253893,
    "Capacidad productiva": 367,
    "Oferta Aserrín": 0,
    "Oferta Chip": 734,
    "Oferta Viruta": 0,
    "tipo": "aserradero",
    "size": 24
  },
  {
    "Nombre": "concepción del uruguay",
    "Identificador": "P01",
    "latitud": -31.42276,
    "longitud": -58.08755,
    "tipo": "planta"
  },
  {
    "Nombre": "puerto de uruguay",
    "Identificador": "C01",
    "latitud": -32.48545714433949,
    "longitud": -58.22246247372517,
    "tipo": "consumidor"
  },
  {
    "Nombre": "Ceibas",
    "Identificador": "C02",
    "latitud": -33.50066056167482,
    "longitud": -58.80458141771032,
    "tipo": "consumidor"
  },
  {
    "Nombre": "Victoria",
    "Identificador": "C03",
    "latitud": -32.59963789349363,
    "longitud": -60.18341212007158,
    "tipo": "consumidor"
  },
  {
    "Nombre": "Paraná",
    "Identificador": "C04",
    "latitud": -31.7920737,
    "longitud": -60.2945864,
    "tipo": "consumidor"
  }
]
